[
	{"Location":"Abbot Point","HighTideOccurs":"2 January 2014, 9:47 AM","DateRange":"1–3 January 2014","State":"QLD","Latitude":-19.9078861,"Longitude":148.08467259999998},{"Location":"Brisbane  Bar","HighTideOccurs":"2 January 2014, 10:16 AM","DateRange":"1–3 January 2014","State":"QLD","Latitude":-27.477819,"Longitude":153.01889119999998},{"Location":"Booby Island","HighTideOccurs":"2 January 2014, 3:49 PM","DateRange":"1–3 January 2014","State":"QLD","Latitude":-10.6,"Longitude":141.91666669999995},{"Location":"Bowen","HighTideOccurs":"2 January 2014, 10:31 AM","DateRange":"1–3 January 2014","State":"QLD","Latitude":-20.012989496249062,"Longitude":148.24161529541016},{"Location":"Bundaberg (Burnett Heads)","HighTideOccurs":"2 January 2014, 9:08 AM","DateRange":"1–3 January 2014","State":"QLD","Latitude":-24.875493983465375,"Longitude":152.34981536865234},{"Location":"Cairns","HighTideOccurs":"2 January 2014, 9:57 AM","DateRange":"1–3 January 2014","State":"QLD","Latitude":-16.928219873986436,"Longitude":145.75647354125977},{"Location":"Gladstone","HighTideOccurs":"2 January 2014, 9:45 AM","DateRange":"1–3 January 2014","State":"QLD","Latitude":-23.862249813222824,"Longitude":151.2484359741211},{"Location":"Gold Coast Seaway","HighTideOccurs":"2 January 2014, 8:50 AM","DateRange":"1–3 January 2014","State":"QLD","Latitude":-27.934645,"Longitude":153.43017429999998},{"Location":"Hay Point","HighTideOccurs":"2 January 2014, 11:20 AM","DateRange":"1–3 January 2014","State":"QLD","Latitude":-21.3055785,"Longitude":149.2921629},{"Location":"Lucinda","HighTideOccurs":"2 January 2014, 9:44 AM","DateRange":"1–3 January 2014","State":"QLD","Latitude":-18.5281158,"Longitude":146.33142079999993},{"Location":"Mackay Outer Harbour","HighTideOccurs":"2 January 2014, 11:22 AM","DateRange":"1–3 January 2014","State":"QLD","Latitude":-21.1166667,"Longitude":149.23333330000003},{"Location":"Mooloolaba","HighTideOccurs":"2 January 2014, 8:39 AM","DateRange":"1–3 January 2014","State":"QLD","Latitude":-26.6778695,"Longitude":153.117347},{"Location":"Mourilyan Harbour","HighTideOccurs":"2 January 2014, 9:43 AM","DateRange":"1–3 January 2014","State":"QLD","Latitude":-17.5964692,"Longitude":146.1184002},{"Location":"Noosa Head","HighTideOccurs":"2 January 2014, 8:36 AM","DateRange":"1–3 January 2014","State":"QLD","Latitude":-26.397933176477725,"Longitude":153.08993339538574},{"Location":"Port Alma","HighTideOccurs":"2 January 2014, 9:47 AM","DateRange":"1–3 January 2014","State":"QLD","Latitude":-23.6220066,"Longitude":150.7327272},{"Location":"Port Douglas","HighTideOccurs":"2 January 2014, 9:45 AM","DateRange":"1–3 January 2014","State":"QLD","Latitude":-16.4839785,"Longitude":145.46583269999996},{"Location":"Rosslyn Bay","HighTideOccurs":"2 January 2014, 9:36 AM","DateRange":"1–3 January 2014","State":"QLD","Latitude":-23.165461,"Longitude":150.79087800000002},{"Location":"Shute Harbour","HighTideOccurs":"2 January 2014, 11:17 AM","DateRange":"1–3 January 2014","State":"QLD","Latitude":-20.2909865,"Longitude":148.78480590000004},{"Location":"Townsville","HighTideOccurs":"2 January 2014, 9:40 AM","DateRange":"1–3 January 2014","State":"QLD","Latitude":-19.26008280877702,"Longitude":146.81459426879883},{"Location":"Urangan","HighTideOccurs":"2 January 2014, 9:15 AM","DateRange":"1–3 January 2014","State":"QLD","Latitude":-25.2815385,"Longitude":152.9007788},{"Location":"Waddy Point (Fraser Island)","HighTideOccurs":"2 January 2014, 8:26 AM","DateRange":"1–3 January 2014","State":"QLD","Latitude":-24.9657049,"Longitude":153.34970799999996},{"Location":"Karumba","HighTideOccurs":"14 January 2014, 6:48 PM","DateRange":"13–15 January 2014","State":"QLD","Latitude":-17.4871222,"Longitude":140.84385309999993},{"Location":"Mornington Island","HighTideOccurs":"9 February 2014, 6:17 PM","DateRange":"8–10 February 2014","State":"QLD","Latitude":-16.5174872,"Longitude":139.40594350000003},{"Location":"Weipa (Humbug Point)","HighTideOccurs":"2 January 2014, 4:23 PM","DateRange":"1–3 January 2014","State":"QLD","Latitude":-12.6591475,"Longitude":141.83840639999994},{"Location":"Goods Island","HighTideOccurs":"2 January 2014, 3:33 PM","DateRange":"1–3 January 2014","State":"QLD","Latitude":-10.5631623,"Longitude":142.15672870000003},{"Location":"Thursday Island","HighTideOccurs":"2 January 2014, 1:31 PM","DateRange":"1–3 January 2014","State":"QLD","Latitude":-10.579887,"Longitude":142.21849180000004},{"Location":"Twin Island","HighTideOccurs":"2 January 2014, 12:49 PM","DateRange":"1–3 January 2014","State":"QLD","Latitude":-10.462299094860645,"Longitude":142.44742155075073},
	{"Location":"Botany Bay","HighTideOccurs":"2 January 2014, 9:37 AM","DateRange":"1–3 January 2014","State":"NSW","Latitude":-33.9894153,"Longitude":151.18110520000005},{"Location":"Eden","HighTideOccurs":"2 January 2014, 9:29 AM","DateRange":"1–3 January 2014","State":"NSW","Latitude":-37.0637713,"Longitude":149.90208719999998},{"Location":"Lord Howe Island","HighTideOccurs":"2 January 2014, 9:30 AM","DateRange":"1–3 January 2014","State":"NSW","Latitude":-31.5314822,"Longitude":159.07019949999994},{"Location":"Newcastle","HighTideOccurs":"2 January 2014, 9:39 AM","DateRange":"1–3 January 2014","State":"NSW","Latitude":-32.937070535144855,"Longitude":151.76599502563477},{"Location":"Port Kembla","HighTideOccurs":"2 January 2014, 9:31 AM","DateRange":"1–3 January 2014","State":"NSW","Latitude":-34.4800735,"Longitude":150.90049499999998},{"Location":"Sydney (Fort Denison)","HighTideOccurs":"2 January 2014, 9:34 AM","DateRange":"1–3 January 2014","State":"NSW","Latitude":-33.90429307746067,"Longitude":151.20723724365234},{"Location":"Yamba","HighTideOccurs":"2 January 2014, 9:45 AM","DateRange":"1–3 January 2014","State":"NSW","Latitude":-29.437827,"Longitude":153.36027220000005},{"Location":"Norfolk Island","HighTideOccurs":"2 January 2014, 8:59 AM","DateRange":"1–3 January 2014","State":"NSW","Latitude":-29.028385453132888,"Longitude":167.95366287231445},
	{"Location":"Lakes Entrance","HighTideOccurs":"2 January 2014, 9:55 AM","DateRange":"1–3 January 2014","State":"VIC","Latitude":-37.8795844,"Longitude":147.99160470000004},{"Location":"Corio Bay","HighTideOccurs":"5 January 2014, 6:53 AM","DateRange":"4–6 January 2014","State":"VIC","Latitude":-38.1126262,"Longitude":144.40139069999998},{"Location":"Lorne","HighTideOccurs":"5 January 2014, 3:21 PM","DateRange":"4–6 January 2014","State":"VIC","Latitude":-38.5408943,"Longitude":143.97515199999998},{"Location":"Melbourne (Williamstown)","HighTideOccurs":"2 January 2014, 3:08 PM","DateRange":"1–3 January 2014","State":"VIC","Latitude":-37.86543543539307,"Longitude":144.8913860321045},{"Location":"Port Phillip Heads (Pt. Lonsdale)","HighTideOccurs":"5 January 2014, 3:36 PM","DateRange":"4–6 January 2014","State":"VIC","Latitude":-38.28831976627922,"Longitude":144.6123504638672},{"Location":"Port Welshpool Pier","HighTideOccurs":"2 January 2014, 1:00 PM","DateRange":"1–3 January 2014","State":"VIC","Latitude":-38.702927236289305,"Longitude":146.46697998046875},{"Location":"Portland","HighTideOccurs":"5 January 2014, 2:37 PM","DateRange":"4–6 January 2014","State":"VIC","Latitude":-38.3459644936538,"Longitude":141.62338256835938},{"Location":"Western Port (Stony Point)","HighTideOccurs":"5 January 2014, 6:10 PM","DateRange":"4–6 January 2014","State":"VIC","Latitude":-38.4604358,"Longitude":145.33647029999997},{"Location":"Queenscliff","HighTideOccurs":"2 January 2014, 1:08 PM","DateRange":"1–3 January 2014","State":"VIC","Latitude":-38.2674447,"Longitude":144.66145030000007},
	{"Location":"Hobart","HighTideOccurs":"2 January 2014, 8:51 AM","DateRange":"1–3 January 2014","State":"TAS","Latitude":-42.88904574206035,"Longitude":147.3486328125},{"Location":"Spring Bay","HighTideOccurs":"2 January 2014, 9:14 AM","DateRange":"1–3 January 2014","State":"TAS","Latitude":-42.5119347,"Longitude":147.91379589999997},{"Location":"Burnie","HighTideOccurs":"5 January 2014, 3:37 PM","DateRange":"4–6 January 2014","State":"TAS","Latitude":-41.0753348,"Longitude":145.8975881},{"Location":"Low Head","HighTideOccurs":"2 January 2014, 12:16 PM","DateRange":"1–3 January 2014","State":"TAS","Latitude":-41.080404,"Longitude":146.80794330000003},{"Location":"Mersey River","HighTideOccurs":"2 January 2014, 12:14 PM","DateRange":"1–3 January 2014","State":"TAS","Latitude":-41.2164604,"Longitude":146.37222410000004},{"Location":"Stanley","HighTideOccurs":"5 January 2014, 3:58 PM","DateRange":"4–6 January 2014","State":"TAS","Latitude":-40.75740009012924,"Longitude":145.29796600341797},
	{"Location":"Wallaroo","HighTideOccurs":"1 February 2014, 6:39 AM","DateRange":"31 January–2 February 2014","State":"SA","Latitude":-33.93212316661666,"Longitude":137.62595557956956},{"Location":"Port Giles","HighTideOccurs":"20 March 2014, 6:55 PM","DateRange":"19–21 March 2014","State":"SA","Latitude":-35.09069797301508,"Longitude":137.76031494140625},{"Location":"Port Adelaide (Outer Harbour)","HighTideOccurs":"20 March 2014, 7:27 PM","DateRange":"19–21 March 2014","State":"SA","Latitude":-34.8477448,"Longitude":138.50736159999997},{"Location":"Thevenard","HighTideOccurs":"18 March 2014, 2:48 PM","DateRange":"17–19 March 2014","State":"SA","Latitude":-32.1460098,"Longitude":133.65003230000002},{"Location":"Victor Harbor","HighTideOccurs":"20 March 2014, 3:43 PM","DateRange":"19–21 March 2014","State":"SA","Latitude":-35.56574628576277,"Longitude":138.6309814453125},{"Location":"Port Lincoln","HighTideOccurs":"20 March 2014, 4:46 PM","DateRange":"19–21 March 2014","State":"SA","Latitude":-34.7195321,"Longitude":135.85746229999995},{"Location":"Port Pirie","HighTideOccurs":"1 February 2014, 9:10 AM","DateRange":"31 January–2 February 2014","State":"SA","Latitude":-33.177215147756435,"Longitude":138.01437377929688},{"Location":"Whyalla","HighTideOccurs":"1 February 2014, 8:33 AM","DateRange":"31 January–2 February 2014","State":"SA","Latitude":-33.0343994,"Longitude":137.58491479999998},
	{"Location":"Wyndham","HighTideOccurs":"4 March 2014, 9:09 AM","DateRange":"3–5 March 2014","State":"WA","Latitude":-15.46691621458645,"Longitude":128.10333251953125},{"Location":"Albany","HighTideOccurs":"7 March 2014, 12:40 PM","DateRange":"6–8 March 2014","State":"WA","Latitude":-35.021702,"Longitude":117.88110400000005},{"Location":"Esperance","HighTideOccurs":"5 March 2014, 12:41 PM","DateRange":"4–6 March 2014","State":"WA","Latitude":-33.8594128,"Longitude":121.89324839999995},{"Location":"Carnarvon","HighTideOccurs":"5 March 2014, 1:31 PM","DateRange":"4–6 March 2014","State":"WA","Latitude":-24.8826946,"Longitude":113.65702039999996},{"Location":"Barrow Island (Tanker Mooring)","HighTideOccurs":"4 March 2014, 1:13 PM","DateRange":"3–5 March 2014","State":"WA","Latitude":-20.7804342,"Longitude":115.40227060000007},{"Location":"Barrow Island (Wapet Landing)","HighTideOccurs":"4 March 2014, 12:46 PM","DateRange":"3–5 March 2014","State":"WA","Latitude":-20.7804342,"Longitude":115.40227060000007},{"Location":"Broome","HighTideOccurs":"4 March 2014, 12:25 PM","DateRange":"3–5 March 2014","State":"WA","Latitude":-17.9512214,"Longitude":122.24432720000004},{"Location":"Cape Voltaire (Krait Bay)","HighTideOccurs":"4 March 2014, 12:31 PM","DateRange":"3–5 March 2014","State":"WA","Latitude":-14.2666667,"Longitude":125.58333330000005},{"Location":"Cape Domett","HighTideOccurs":"2 March 2014, 6:44 PM","DateRange":"1–3 March 2014","State":"WA","Latitude":-14.8333333,"Longitude":128.3833333},{"Location":"Thevenard Island","HighTideOccurs":"4 March 2014, 1:02 PM","DateRange":"3–5 March 2014","State":"WA","Latitude":-21.460737306938082,"Longitude":115.0048828125},{"Location":"Dampier (King Bay)","HighTideOccurs":"4 March 2014, 12:38 PM","DateRange":"3–5 March 2014","State":"WA","Latitude":-20.6637988,"Longitude":116.70846040000004},{"Location":"Denham","HighTideOccurs":"5 March 2014, 3:34 PM","DateRange":"4–6 March 2014","State":"WA","Latitude":-25.928723,"Longitude":113.53538900000001},{"Location":"Derby","HighTideOccurs":"5 March 2014, 4:33 PM","DateRange":"4–6 March 2014","State":"WA","Latitude":-17.290331535947793,"Longitude":123.59619140625},{"Location":"Exmouth","HighTideOccurs":"5 March 2014, 1:47 PM","DateRange":"4–6 March 2014","State":"WA","Latitude":-21.9307242,"Longitude":114.12238879999995},{"Location":"Onslow (Beadon Creek)","HighTideOccurs":"4 March 2014, 1:23 PM","DateRange":"3–5 March 2014","State":"WA","Latitude":-21.637849,"Longitude":115.11338720000003},{"Location":"Port Hedland","HighTideOccurs":"4 March 2014, 12:59 PM","DateRange":"3–5 March 2014","State":"WA","Latitude":-20.3116266,"Longitude":118.57525770000007},{"Location":"Port Walcott (Cape Lambert)","HighTideOccurs":"4 March 2014, 12:39 PM","DateRange":"3–5 March 2014","State":"WA","Latitude":-20.59807974803205,"Longitude":117.17330932617188},{"Location":"Yampi Sound (Koolan Island)","HighTideOccurs":"4 March 2014, 1:21 PM","DateRange":"3–5 March 2014","State":"WA","Latitude":-16.124985029560996,"Longitude":123.760986328125},{"Location":"Bunbury","HighTideOccurs":"7 March 2014, 12:40 PM","DateRange":"6–8 March 2014","State":"WA","Latitude":-33.34,"Longitude":115.64200000000005},{"Location":"Fremantle","HighTideOccurs":"7 March 2014, 2:08 PM","DateRange":"6–8 March 2014","State":"WA","Latitude":-32.0560399,"Longitude":115.74717970000006},{"Location":"Geraldton","HighTideOccurs":"6 March 2014, 1:32 PM","DateRange":"5–7 March 2014","State":"WA","Latitude":-28.7791667,"Longitude":114.61444440000002},{"Location":"Hillarys","HighTideOccurs":"7 March 2014, 1:56 PM","DateRange":"6–8 March 2014","State":"WA","Latitude":-31.7982298,"Longitude":115.74544519999995},
	{"Location":"Melville Bay (Gove Harbour, Gunyangara)","HighTideOccurs":"2 February 2014, 10:15 AM","DateRange":"1–3 February 2014","State":"NT","Latitude":-12.18164971017173,"Longitude":136.6644287109375},{"Location":"Centre Island","HighTideOccurs":"31 January 2014, 3:53 PM","DateRange":"30 January–1 February 2014","State":"NT","Latitude":-15.6860155,"Longitude":136.75752209999996},{"Location":"Darwin","HighTideOccurs":"31 January 2014, 7:09 PM","DateRange":"30 January–1 February 2014","State":"NT","Latitude":-12.466748786417785,"Longitude":130.8313751220703},{"Location":"Milner Bay (Groote Eylandt)","HighTideOccurs":"25 February 2014, 6:31 PM","DateRange":"24–26 February 2014","State":"NT","Latitude":-13.68601918691519,"Longitude":136.593017578125}
]